{
  "total_fidedignas": 57,
  "total_db_items": 75,
  "matched": [
    {
      "fidedigna": {
        "address": "Alfonso Reyes, Hipódromo Condesa Nº152",
        "category": "Muro",
        "url": "https://maps.app.goo.gl/FtJXUzsQyv88ftnr8",
        "lat": 19.4086214,
        "lng": -99.178537
      },
      "db": {
        "id": 45,
        "address": "ALFONSO REYES N° 152, HIPÓDROMO CONDESA",
        "category": "Muro",
        "lat": 19.4086214,
        "lng": -99.178537,
        "original_url": "https://maps.app.goo.gl/FtJXUzsQyv88ftnr8"
      },
      "similarity": 1,
      "distance_meters": 0,
      "is_coord_diff": false
    },
    {
      "fidedigna": {
        "address": "Blvd. Adolfo López Mateos Nº1817",
        "category": "Muro",
        "url": "https://www.google.com/maps?q=place_id:ChIJ44cEtSAA0oURBd42ZpJHnPI",
        "lat": 19.3655268,
        "lng": -99.1911672
      },
      "db": {
        "id": 32,
        "address": "BLVD. ADOLFO LÓPEZ MATEOS 1817 (TORREO NEO)",
        "category": "Muro",
        "lat": 19.3655268,
        "lng": -99.1911672,
        "original_url": "https://www.google.com/maps?q=place_id:ChIJ44cEtSAA0oURBd42ZpJHnPI"
      },
      "similarity": 1,
      "distance_meters": 0,
      "is_coord_diff": false
    },
    {
      "fidedigna": {
        "address": "Blvd. Adolfo López Mateos Nº1803",
        "category": "Muro",
        "url": "https://www.google.com/maps?q=place_id:ChIJlWOMRicA0oURyShcQ8HudYg",
        "lat": 19.3660022,
        "lng": -99.1911649
      },
      "db": {
        "id": 16,
        "address": "BLVD. ADOLFO LÓPEZ MATEOS N° 1803",
        "category": "Muro",
        "lat": 19.3660022,
        "lng": -99.1911649,
        "original_url": "https://www.google.com/maps?q=place_id:ChIJlWOMRicA0oURyShcQ8HudYg"
      },
      "similarity": 1,
      "distance_meters": 0,
      "is_coord_diff": false
    },
    {
      "fidedigna": {
        "address": "Periférico Sur N°4192",
        "category": "Muro",
        "url": "https://maps.app.goo.gl/SnryWkrBnBhLa7sP6",
        "lat": 19.3062178,
        "lng": -99.2094741
      },
      "db": {
        "id": 86,
        "address": "PERIFÉRICO SUR N°4192",
        "category": "Muro",
        "lat": 19.3062178,
        "lng": -99.2094741,
        "original_url": "https://maps.app.goo.gl/SnryWkrBnBhLa7sP6"
      },
      "similarity": 1,
      "distance_meters": 0,
      "is_coord_diff": false
    },
    {
      "fidedigna": {
        "address": "Av. Paseo de la Reforma N°80",
        "category": "Muro",
        "url": "https://www.google.com/maps?q=place_id:ChIJg_7qGiX50YURrlKhBb_V7gE",
        "lat": 19.4470441,
        "lng": -99.1364935
      },
      "db": {
        "id": 44,
        "address": "AV. P.º DE LA REFORMA 80, JUÁREZ, CUAUHTÉMOC",
        "category": "Muro",
        "lat": 19.4470441,
        "lng": -99.1364935,
        "original_url": "https://www.google.com/maps?q=place_id:ChIJg_7qGiX50YURrlKhBb_V7gE"
      },
      "similarity": 1,
      "distance_meters": 0,
      "is_coord_diff": false
    },
    {
      "fidedigna": {
        "address": "Horacio N°604",
        "category": "Muro",
        "url": "https://www.google.com/maps?q=place_id:ChIJWbbjOAAC0oURlc1XU2YJhoI",
        "lat": 19.4333176,
        "lng": -99.1911802
      },
      "db": {
        "id": 15,
        "address": "HORACIO N° 604",
        "category": "Muro",
        "lat": 19.4333176,
        "lng": -99.1911802,
        "original_url": "https://www.google.com/maps?q=place_id:ChIJWbbjOAAC0oURlc1XU2YJhoI"
      },
      "similarity": 1,
      "distance_meters": 0,
      "is_coord_diff": false
    },
    {
      "fidedigna": {
        "address": "Av. Constituyentes N°345",
        "category": "Muro",
        "url": "https://www.google.com/maps?q=place_id:ChIJw7SpoOcB0oURk4RQVOnmyMo",
        "lat": 19.4081772,
        "lng": -99.1981674
      },
      "db": {
        "id": 46,
        "address": "AV CONSTITUYENTES N°345, DANIEL GARZA",
        "category": "Muro",
        "lat": 19.4081772,
        "lng": -99.1981674,
        "original_url": "https://www.google.com/maps?q=place_id:ChIJw7SpoOcB0oURk4RQVOnmyMo"
      },
      "similarity": 1,
      "distance_meters": 0,
      "is_coord_diff": false
    },
    {
      "fidedigna": {
        "address": "Popocatépetl N°14",
        "category": "Muro",
        "url": "https://www.google.com/maps?q=place_id:ChIJvSfNwDj_0YURDOUCCq251mU",
        "lat": 19.4151819,
        "lng": -99.1662538
      },
      "db": {
        "id": 14,
        "address": "INSURGENTES, ESQ. POPOCATEPETL N° 14",
        "category": "Muro",
        "lat": 19.4151819,
        "lng": -99.1662538,
        "original_url": "https://www.google.com/maps?q=place_id:ChIJvSfNwDj_0YURDOUCCq251mU"
      },
      "similarity": 1,
      "distance_meters": 0,
      "is_coord_diff": false
    },
    {
      "fidedigna": {
        "address": "Jalapa N°18",
        "category": "Muro",
        "url": "https://www.google.com/maps?q=place_id:ChIJZaTK1DD_0YURunXeAVL0eZk",
        "lat": 19.42285,
        "lng": -99.1622036
      },
      "db": {
        "id": 39,
        "address": "JALAPA 15, ROMA NTE., CUAUH. GLORIETA DE INSURGENTES",
        "category": "Muro",
        "lat": 19.42285,
        "lng": -99.1622036,
        "original_url": "https://www.google.com/maps?q=place_id:ChIJZaTK1DD_0YURunXeAVL0eZk"
      },
      "similarity": 1,
      "distance_meters": 0,
      "is_coord_diff": false
    },
    {
      "fidedigna": {
        "address": "Av. Constituyentes N°647",
        "category": "Muro",
        "url": "https://www.google.com/maps?q=place_id:ChIJZRjy3cAB0oURLpwpX-0DQaI",
        "lat": 19.4013868,
        "lng": -99.2097117
      },
      "db": {
        "id": 51,
        "address": "AV CONSTITUYENTES N°643, COL.16 DE SEPT",
        "category": "Muro",
        "lat": 19.4013868,
        "lng": -99.2097117,
        "original_url": "https://www.google.com/maps?q=place_id:ChIJZRjy3cAB0oURLpwpX-0DQaI"
      },
      "similarity": 1,
      "distance_meters": 0,
      "is_coord_diff": false
    },
    {
      "fidedigna": {
        "address": "Periférico Manuel Ávila Camacho NTE, Nº131",
        "category": "Muro",
        "url": "https://maps.app.goo.gl/LLYoxkTGQbTPH6t88",
        "lat": 19.3273554,
        "lng": -99.2152369
      },
      "db": {
        "id": 27,
        "address": "PERIFERICO MANUEL AVILA CAMACHO N° 131 (VISTA PALMAS)",
        "category": "Muro",
        "lat": 19.3273554,
        "lng": -99.2152369,
        "original_url": "https://maps.app.goo.gl/LLYoxkTGQbTPH6t88"
      },
      "similarity": 1,
      "distance_meters": 0,
      "is_coord_diff": false
    },
    {
      "fidedigna": {
        "address": "Av. Río Churubusco Nº342",
        "category": "Muro",
        "url": "https://maps.app.goo.gl/VsiNSCdguRUn1Tfe7",
        "lat": 19.3601722,
        "lng": -99.1770866
      },
      "db": {
        "id": 17,
        "address": "RIO CHURUBUSCO N° 342, ESQ. AV. UNIVERSIDAD",
        "category": "Muro",
        "lat": 19.3601722,
        "lng": -99.1770866,
        "original_url": "https://maps.app.goo.gl/VsiNSCdguRUn1Tfe7"
      },
      "similarity": 1,
      "distance_meters": 0,
      "is_coord_diff": false
    },
    {
      "fidedigna": {
        "address": "Hegel Nº228",
        "category": "Muro",
        "url": "https://maps.app.goo.gl/CqMteAWQnWWb697C8",
        "lat": 19.4345562,
        "lng": -99.1904717
      },
      "db": {
        "id": 38,
        "address": "HEGEL N°228",
        "category": "Muro",
        "lat": 19.4345562,
        "lng": -99.1904717,
        "original_url": "https://maps.app.goo.gl/CqMteAWQnWWb697C8"
      },
      "similarity": 1,
      "distance_meters": 0,
      "is_coord_diff": false
    },
    {
      "fidedigna": {
        "address": "Av. Monterrey Nº150",
        "category": "Muro",
        "url": "https://maps.app.goo.gl/6Bm279mbjKbG34CX8",
        "lat": 19.4156675,
        "lng": -99.1682814
      },
      "db": {
        "id": 30,
        "address": "AV. MONTERREY N°150, COL. ROMA",
        "category": "Muro",
        "lat": 19.4156675,
        "lng": -99.1682814,
        "original_url": "https://maps.app.goo.gl/6Bm279mbjKbG34CX8"
      },
      "similarity": 1,
      "distance_meters": 0,
      "is_coord_diff": false
    },
    {
      "fidedigna": {
        "address": "C. Querétaro Nº147",
        "category": "Muro",
        "url": "https://maps.app.goo.gl/yNwiJJVGXi7mNARW7",
        "lat": 19.414922,
        "lng": -99.1638878
      },
      "db": {
        "id": 49,
        "address": "QUERÉTARO 147, ROMA NTE.",
        "category": "Muro",
        "lat": 19.414922,
        "lng": -99.1638878,
        "original_url": "https://maps.app.goo.gl/yNwiJJVGXi7mNARW7"
      },
      "similarity": 1,
      "distance_meters": 0,
      "is_coord_diff": false
    },
    {
      "fidedigna": {
        "address": "Av. Álvaro Obregón Nº44",
        "category": "Muro",
        "url": "https://maps.app.goo.gl/E22XRwrVfommCmGe9",
        "lat": 19.3055743,
        "lng": -99.239766
      },
      "db": {
        "id": 40,
        "address": "AV. ALVARO OBREGÓN N°52, COL. ROMA NORTE",
        "category": "Muro",
        "lat": 19.3055743,
        "lng": -99.239766,
        "original_url": "https://maps.app.goo.gl/E22XRwrVfommCmGe9"
      },
      "similarity": 1,
      "distance_meters": 0,
      "is_coord_diff": false
    },
    {
      "fidedigna": {
        "address": "Av. Revolución Nº1348",
        "category": "Muro",
        "url": "https://maps.app.goo.gl/jNxbPryJkF6GGKUu6",
        "lat": 19.35792,
        "lng": -99.1942353
      },
      "db": {
        "id": 31,
        "address": "AV. REVOLUCIÓN N°1348, GUADALUPE INN",
        "category": "Muro",
        "lat": 19.35792,
        "lng": -99.1942353,
        "original_url": "https://maps.app.goo.gl/jNxbPryJkF6GGKUu6"
      },
      "similarity": 1,
      "distance_meters": 0,
      "is_coord_diff": false
    },
    {
      "fidedigna": {
        "address": "Altata Nº22",
        "category": "Muro",
        "url": "https://maps.app.goo.gl/NnZmX5cH1p7EKxTU9",
        "lat": 19.4063034,
        "lng": -99.1751637
      },
      "db": {
        "id": 84,
        "address": "ALTATA Nº22, CONDESA",
        "category": "Muro",
        "lat": 19.4063034,
        "lng": -99.1751637,
        "original_url": "https://maps.app.goo.gl/NnZmX5cH1p7EKxTU9"
      },
      "similarity": 1,
      "distance_meters": 0,
      "is_coord_diff": false
    },
    {
      "fidedigna": {
        "address": "Viaducto Río Becerra Nº451",
        "category": "Muro",
        "url": "https://maps.app.goo.gl/7NHGu2N8yDnoP8SE6",
        "lat": 19.3866364,
        "lng": -99.1840854
      },
      "db": {
        "id": 50,
        "address": "VIADUCTO RÍO BECERRA N°451, NÁPOLES",
        "category": "Muro",
        "lat": 19.3866364,
        "lng": -99.1840854,
        "original_url": "https://maps.app.goo.gl/7NHGu2N8yDnoP8SE6"
      },
      "similarity": 1,
      "distance_meters": 0,
      "is_coord_diff": false
    },
    {
      "fidedigna": {
        "address": "Gutenberg Nº39",
        "category": "Muro",
        "url": "https://maps.app.goo.gl/RcoN4kvweSzdyjQm6",
        "lat": 19.433731,
        "lng": -99.1753302
      },
      "db": {
        "id": 53,
        "address": "GUTENBERG N°39, VERÓNICA ANZÚRES",
        "category": "Muro",
        "lat": 19.433731,
        "lng": -99.1753302,
        "original_url": "https://maps.app.goo.gl/RcoN4kvweSzdyjQm6"
      },
      "similarity": 1,
      "distance_meters": 0,
      "is_coord_diff": false
    },
    {
      "fidedigna": {
        "address": "Av. Universidad Nº1883",
        "category": "Muro",
        "url": "https://maps.app.goo.gl/ZxTLTXskFy5Taghz7",
        "lat": 19.3422988,
        "lng": -99.1843125
      },
      "db": {
        "id": 18,
        "address": "AV. UNIVERSIDAD N° 1883, COYOACÁN",
        "category": "Muro",
        "lat": 19.3422988,
        "lng": -99.1843125,
        "original_url": "https://maps.app.goo.gl/ZxTLTXskFy5Taghz7"
      },
      "similarity": 1,
      "distance_meters": 0,
      "is_coord_diff": false
    },
    {
      "fidedigna": {
        "address": "Ejército Nacional Nº436",
        "category": "Muro",
        "url": "https://maps.app.goo.gl/DE4nEnZo4bx6E4nF7",
        "lat": 19.4375175,
        "lng": -99.1932684
      },
      "db": {
        "id": 19,
        "address": "EJERCITO NACIONAL N° 436",
        "category": "Muro",
        "lat": 19.4375175,
        "lng": -99.1932684,
        "original_url": "https://maps.app.goo.gl/DE4nEnZo4bx6E4nF7"
      },
      "similarity": 1,
      "distance_meters": 0,
      "is_coord_diff": false
    },
    {
      "fidedigna": {
        "address": "Viaducto M. Alemán Nº936",
        "category": "Muro",
        "url": "https://maps.app.goo.gl/Ad3eUzigfM1HtQEWA",
        "lat": 19.3977634,
        "lng": -99.1783315
      },
      "db": {
        "id": 20,
        "address": "VIADUCTO N°936, COL. NAPOLES",
        "category": "Muro",
        "lat": 19.3977634,
        "lng": -99.1783315,
        "original_url": "https://maps.app.goo.gl/Ad3eUzigfM1HtQEWA"
      },
      "similarity": 1,
      "distance_meters": 0,
      "is_coord_diff": false
    },
    {
      "fidedigna": {
        "address": "Jose Maria Rico N°230",
        "category": "Muro",
        "url": "https://maps.app.goo.gl/j8QgaPCZFXorMESk9",
        "lat": 19.3682503,
        "lng": -99.1780628
      },
      "db": {
        "id": 70,
        "address": "JOSÉ MARÍA RICO 230",
        "category": "Muro",
        "lat": 19.3682503,
        "lng": -99.1780628,
        "original_url": "https://maps.app.goo.gl/j8QgaPCZFXorMESk9"
      },
      "similarity": 1,
      "distance_meters": 0,
      "is_coord_diff": false
    },
    {
      "fidedigna": {
        "address": "Nuevo León Nº202",
        "category": "Muro",
        "url": "https://maps.app.goo.gl/aYti7LDAFEtQHvNA6",
        "lat": 19.4054595,
        "lng": -99.1762397
      },
      "db": {
        "id": 21,
        "address": "NUEVO LEON N°202, ESQ. BAJA CALIFORNIA",
        "category": "Muro",
        "lat": 19.4054595,
        "lng": -99.1762397,
        "original_url": "https://maps.app.goo.gl/aYti7LDAFEtQHvNA6"
      },
      "similarity": 1,
      "distance_meters": 0,
      "is_coord_diff": false
    },
    {
      "fidedigna": {
        "address": "Av. Insurgentes Sur Nº568",
        "category": "Muro",
        "url": "https://maps.app.goo.gl/cmSFTUEMA73hj9CC8",
        "lat": 19.399131,
        "lng": -99.1731159
      },
      "db": {
        "id": 7,
        "address": "INSURGENTES SUR N° 568 - MURO XOLA",
        "category": "Muro",
        "lat": 19.399131,
        "lng": -99.1731159,
        "original_url": "https://maps.app.goo.gl/cmSFTUEMA73hj9CC8"
      },
      "similarity": 1,
      "distance_meters": 0,
      "is_coord_diff": false
    },
    {
      "fidedigna": {
        "address": "Av. Insurgentes Sur Nº58(6)",
        "category": "Muro",
        "url": "https://maps.app.goo.gl/HEEEotPXeNrrEi917",
        "lat": 19.3985737,
        "lng": -99.1737233
      },
      "db": {
        "id": 52,
        "address": "AV. INSURGENTES SUR N° 586, DEL VALLE",
        "category": "Muro",
        "lat": 19.3985737,
        "lng": -99.1737233,
        "original_url": "https://maps.app.goo.gl/HEEEotPXeNrrEi917"
      },
      "similarity": 1,
      "distance_meters": 0,
      "is_coord_diff": false
    },
    {
      "fidedigna": {
        "address": "Av. Insurgentes Nº377",
        "category": "Muro",
        "url": "https://maps.app.goo.gl/7rkBxZCMRUZmHfWJA",
        "lat": 19.4101571,
        "lng": -99.1698914
      },
      "db": {
        "id": 41,
        "address": "AV. INSURGENTES N° 377, COL. ROMA",
        "category": "Muro",
        "lat": 19.4101571,
        "lng": -99.1698914,
        "original_url": "https://maps.app.goo.gl/7rkBxZCMRUZmHfWJA"
      },
      "similarity": 1,
      "distance_meters": 0,
      "is_coord_diff": false
    },
    {
      "fidedigna": {
        "address": "Periférico Sur Nº3380",
        "category": "Muro",
        "url": "https://maps.app.goo.gl/ZQ8982Nejo4Fva1j8",
        "lat": 19.3104199,
        "lng": -99.2229458
      },
      "db": {
        "id": 22,
        "address": "PERIFERICO SUR N°3380, COL. JARDINES DEL PEDREGAL",
        "category": "Muro",
        "lat": 19.3104199,
        "lng": -99.2229458,
        "original_url": "https://maps.app.goo.gl/ZQ8982Nejo4Fva1j8"
      },
      "similarity": 1,
      "distance_meters": 0,
      "is_coord_diff": false
    },
    {
      "fidedigna": {
        "address": "Periférico Norte, esq. Calle 5 Nº39",
        "category": "Muro",
        "url": "https://maps.app.goo.gl/5S1Z3hrJbcxKMkgs7",
        "lat": 19.4674309,
        "lng": -99.2282593
      },
      "db": {
        "id": 85,
        "address": "PERIFÉRICO NORTE, ESQ. CALLE 5 Nº39",
        "category": "Muro",
        "lat": 19.4674309,
        "lng": -99.2282593,
        "original_url": "https://maps.app.goo.gl/5S1Z3hrJbcxKMkgs7"
      },
      "similarity": 1,
      "distance_meters": 0,
      "is_coord_diff": false
    },
    {
      "fidedigna": {
        "address": "Viaducto Río de la Piedad y Coyuya Nº149",
        "category": "Muro",
        "url": "https://maps.app.goo.gl/FW4fjs1YUXE2yJJe8",
        "lat": 19.4055715,
        "lng": -99.1232666
      },
      "db": {
        "id": 5,
        "address": "VIADUCTO - COYUYA N° 149",
        "category": "Muro + Espectacular",
        "lat": 19.4055715,
        "lng": -99.1232666,
        "original_url": "https://maps.app.goo.gl/FW4fjs1YUXE2yJJe8"
      },
      "similarity": 1,
      "distance_meters": 0,
      "is_coord_diff": false
    },
    {
      "fidedigna": {
        "address": "Patricio Sanz Nº1365",
        "category": "Muro",
        "url": "https://maps.app.goo.gl/5YZUMwLd6PZ79MeY7",
        "lat": 19.3773023,
        "lng": -99.1764291
      },
      "db": {
        "id": 68,
        "address": "PATRICIO SANZ N°1365",
        "category": "Muro",
        "lat": 19.3773023,
        "lng": -99.1764291,
        "original_url": "https://maps.app.goo.gl/5YZUMwLd6PZ79MeY7"
      },
      "similarity": 1,
      "distance_meters": 0,
      "is_coord_diff": false
    },
    {
      "fidedigna": {
        "address": "José Vasconcelos N°82",
        "category": "Muro",
        "url": "https://maps.app.goo.gl/t59czR4HQeR7sX4a7",
        "lat": 19.4174039,
        "lng": -99.180861
      },
      "db": {
        "id": 72,
        "address": "JOSÉ VASCONCELOS",
        "category": "Muro",
        "lat": 19.4174039,
        "lng": -99.180861,
        "original_url": "https://maps.app.goo.gl/t59czR4HQeR7sX4a7"
      },
      "similarity": 1,
      "distance_meters": 0,
      "is_coord_diff": false
    },
    {
      "fidedigna": {
        "address": "Arquímedes N°184",
        "category": "Muro",
        "url": "https://maps.app.goo.gl/2s6T4DGGMcKidEXW8",
        "lat": 19.4359351,
        "lng": -99.1933645
      },
      "db": {
        "id": 71,
        "address": "ARQUIMIDES 184",
        "category": "Muro",
        "lat": 19.4359351,
        "lng": -99.1933645,
        "original_url": "https://maps.app.goo.gl/2s6T4DGGMcKidEXW8"
      },
      "similarity": 1,
      "distance_meters": 0,
      "is_coord_diff": false
    },
    {
      "fidedigna": {
        "address": "Periférico Nº30, Alfonso XIII",
        "category": "Pantalla Digital",
        "url": "https://maps.app.goo.gl/hZFGjN3AAkXUKV9s6",
        "lat": 19.3272017,
        "lng": -99.2153384
      },
      "db": {
        "id": 11,
        "address": "PERIFERICO N° 30",
        "category": "Pantalla Digital",
        "lat": 19.3272017,
        "lng": -99.2153384,
        "original_url": "https://maps.app.goo.gl/hZFGjN3AAkXUKV9s6"
      },
      "similarity": 1,
      "distance_meters": 0,
      "is_coord_diff": false
    },
    {
      "fidedigna": {
        "address": "Anillo Periférico, esq. Estepa",
        "category": "Pantalla Digital",
        "url": "https://maps.app.goo.gl/FVnDH2PHxTe256gL7",
        "lat": 19.302427,
        "lng": -99.195568
      },
      "db": {
        "id": 56,
        "address": "ANILLO PERIFERICO, ESQ. ESTEPA (PANTALLA)",
        "category": "Pantalla Digital",
        "lat": 19.302427,
        "lng": -99.195568,
        "original_url": "https://maps.app.goo.gl/FVnDH2PHxTe256gL7"
      },
      "similarity": 1,
      "distance_meters": 0,
      "is_coord_diff": false
    },
    {
      "fidedigna": {
        "address": "Periférico Sur Nº5550",
        "category": "Pantalla Digital",
        "url": "https://maps.app.goo.gl/d8DvBDYFiaG5C1dv6",
        "lat": 19.3018522,
        "lng": -99.164802
      },
      "db": {
        "id": 55,
        "address": "PERIFÉRICO SUR N°5550, EL CARACOL",
        "category": "Pantalla Digital",
        "lat": 19.3018522,
        "lng": -99.164802,
        "original_url": "https://maps.app.goo.gl/d8DvBDYFiaG5C1dv6"
      },
      "similarity": 1,
      "distance_meters": 0,
      "is_coord_diff": false
    },
    {
      "fidedigna": {
        "address": "Periférico Blvd. Adolfo Lopez Mateos Nº2799",
        "category": "Pantalla Digital",
        "url": "https://maps.app.goo.gl/MAFM8U3osVZFWdt19",
        "lat": 19.3254517,
        "lng": -99.2173026
      },
      "db": {
        "id": 10,
        "address": "PERIFERICO BLD. A.LOPEZ MATEOS N° 2799",
        "category": "Muro + Espectacular",
        "lat": 19.3254517,
        "lng": -99.2173026,
        "original_url": "https://maps.app.goo.gl/MAFM8U3osVZFWdt19"
      },
      "similarity": 1,
      "distance_meters": 0,
      "is_coord_diff": false
    },
    {
      "fidedigna": {
        "address": "Periférico Sur Nº3380",
        "category": "Pantalla Digital",
        "url": "https://maps.app.goo.gl/HuvJxhxoFzSCqyv16",
        "lat": 19.3221788,
        "lng": -99.22036
      },
      "db": {
        "id": 24,
        "address": "PERIFERICO SUR N°3380, COL. JARDINES DEL PEDREGAL",
        "category": "Muro + Espectacular",
        "lat": 19.3221788,
        "lng": -99.22036,
        "original_url": "https://maps.app.goo.gl/HuvJxhxoFzSCqyv16"
      },
      "similarity": 1,
      "distance_meters": 0,
      "is_coord_diff": false
    },
    {
      "fidedigna": {
        "address": "Periférico Sur Nº5185",
        "category": "Pantalla Digital",
        "url": "https://maps.app.goo.gl/BiRjWZtzDsdK1efr9",
        "lat": 19.3029508,
        "lng": -99.1788158
      },
      "db": {
        "id": 34,
        "address": "PERIFERICO SUR N°5185",
        "category": "Muro + Espectacular",
        "lat": 19.3029508,
        "lng": -99.1788158,
        "original_url": "https://maps.app.goo.gl/BiRjWZtzDsdK1efr9"
      },
      "similarity": 1,
      "distance_meters": 0,
      "is_coord_diff": false
    },
    {
      "fidedigna": {
        "address": "Periférico Blvd. A López Mateos, Esq. Gutiérrez de Mendoza Nº13",
        "category": "Pantalla Digital",
        "url": "https://maps.app.goo.gl/dY8NycoRWxaRkJc17",
        "lat": 19.2942563,
        "lng": -99.1570115
      },
      "db": {
        "id": 43,
        "address": "PERIFÉRICO, ESQ. GUITIERREZ DE MENDOZA N° 13",
        "category": "Muro + Espectacular",
        "lat": 19.2942563,
        "lng": -99.1570115,
        "original_url": "https://maps.app.goo.gl/dY8NycoRWxaRkJc17"
      },
      "similarity": 1,
      "distance_meters": 0,
      "is_coord_diff": false
    },
    {
      "fidedigna": {
        "address": "Viaducto Miguel Alemán Nº35",
        "category": "Pantalla Digital",
        "url": "https://maps.app.goo.gl/1djv5WYk56PMWKvf7",
        "lat": 19.4042091,
        "lng": -99.1601547
      },
      "db": {
        "id": 36,
        "address": "VIADUCTO MIGUEL ALEMÁN NO. 35 ESQ. HÉROES DE CHURUBUSCO",
        "category": "Muro + Espectacular",
        "lat": 19.4042091,
        "lng": -99.1601547,
        "original_url": "https://maps.app.goo.gl/1djv5WYk56PMWKvf7"
      },
      "similarity": 1,
      "distance_meters": 0,
      "is_coord_diff": false
    },
    {
      "fidedigna": {
        "address": "Carretera México-Cuernavaca Nº51",
        "category": "Pantalla Digital",
        "url": "https://maps.app.goo.gl/4Aog9syfTQbeQJW96",
        "lat": 19.261694,
        "lng": -99.1687428
      },
      "db": {
        "id": 3,
        "address": "CARR. MEXICO - CUERNAVACA N° 51",
        "category": "Muro + Espectacular",
        "lat": 19.261694,
        "lng": -99.1687428,
        "original_url": "https://maps.app.goo.gl/4Aog9syfTQbeQJW96"
      },
      "similarity": 1,
      "distance_meters": 0,
      "is_coord_diff": false
    },
    {
      "fidedigna": {
        "address": "Super Vía Poniente (Dir. Santa Fe)",
        "category": "Pantalla Digital",
        "url": "https://maps.app.goo.gl/kQwUYDgS5gUnW5Zt6",
        "lat": 19.345434,
        "lng": -99.247131
      },
      "db": {
        "id": 12,
        "address": "SUPER VIA PONIENTE, DIRECCION SANTA FE",
        "category": "Muro + Espectacular",
        "lat": 19.345434,
        "lng": -99.247131,
        "original_url": "https://maps.app.goo.gl/kQwUYDgS5gUnW5Zt6"
      },
      "similarity": 1,
      "distance_meters": 0,
      "is_coord_diff": false
    },
    {
      "fidedigna": {
        "address": "Super Vía Poniente (Dir. San Jerónimo)",
        "category": "Pantalla Digital",
        "url": "https://maps.app.goo.gl/LFUMEsz6pZsnBRwE9",
        "lat": 19.345434,
        "lng": -99.247131
      },
      "db": {
        "id": 13,
        "address": "SUPER VIA PONIENTE, DIRECCION SAN JERONIMO",
        "category": "Muro + Espectacular",
        "lat": 19.345434,
        "lng": -99.247131,
        "original_url": "https://maps.app.goo.gl/LFUMEsz6pZsnBRwE9"
      },
      "similarity": 1,
      "distance_meters": 0,
      "is_coord_diff": false
    },
    {
      "fidedigna": {
        "address": "Av. Monterrey Nº172",
        "category": "Pantalla Digital",
        "url": "https://maps.app.goo.gl/ydGa2hYUNP8aMFt77",
        "lat": 19.414668,
        "lng": -99.1657259
      },
      "db": {
        "id": 9,
        "address": "MONTERREY N° 172",
        "category": "Muro",
        "lat": 19.414668,
        "lng": -99.1657259,
        "original_url": "https://maps.app.goo.gl/ydGa2hYUNP8aMFt77"
      },
      "similarity": 1,
      "distance_meters": 0,
      "is_coord_diff": false
    },
    {
      "fidedigna": {
        "address": "Av. Patriotismo N°483",
        "category": "Pantalla Digital",
        "url": "https://maps.app.goo.gl/BqdremE3NEMnGY8z8",
        "lat": 19.3869915,
        "lng": -99.1848619
      },
      "db": {
        "id": 47,
        "address": "AV. PATRIOTISMO N°483, SAN PEDRO DE LOS PINOS",
        "category": "Muro + Espectacular",
        "lat": 19.3869915,
        "lng": -99.1848619,
        "original_url": "https://maps.app.goo.gl/BqdremE3NEMnGY8z8"
      },
      "similarity": 1,
      "distance_meters": 0,
      "is_coord_diff": false
    },
    {
      "fidedigna": {
        "address": "Av. Río Churubusco, Esq. Biógrafos Nº1",
        "category": "Pantalla Digital",
        "url": "https://maps.app.goo.gl/7FDQ68qqFehexsWb9",
        "lat": 19.3703013,
        "lng": -99.114256
      },
      "db": {
        "id": 2,
        "address": "AV. RÍO CHURUBUSCO, ESQ. BIÓGRAFOS NO. 1",
        "category": "Muro + Espectacular",
        "lat": 19.3703013,
        "lng": -99.114256,
        "original_url": "https://maps.app.goo.gl/7FDQ68qqFehexsWb9"
      },
      "similarity": 1,
      "distance_meters": 0,
      "is_coord_diff": false
    },
    {
      "fidedigna": {
        "address": "Av. Universidad Nº1770",
        "category": "Pantalla Digital",
        "url": "https://maps.app.goo.gl/Kcksw4xd5NXLGNhB7",
        "lat": 19.3455222,
        "lng": -99.180732
      },
      "db": {
        "id": 29,
        "address": "AV. UNIVERSIDAD N° 1770",
        "category": "Muro",
        "lat": 19.3455222,
        "lng": -99.180732,
        "original_url": "https://maps.app.goo.gl/Kcksw4xd5NXLGNhB7"
      },
      "similarity": 1,
      "distance_meters": 0,
      "is_coord_diff": false
    },
    {
      "fidedigna": {
        "address": "Viaducto - Av. Río Piedad Nº108",
        "category": "Pantalla Digital",
        "url": "https://maps.app.goo.gl/iH5NqH1xH84iQM48A",
        "lat": 19.4029652,
        "lng": -99.1323786
      },
      "db": {
        "id": 1,
        "address": "VIAD. RIO PIEDAD N° 108",
        "category": "Muro",
        "lat": 19.4029652,
        "lng": -99.1323786,
        "original_url": "https://maps.app.goo.gl/iH5NqH1xH84iQM48A"
      },
      "similarity": 1,
      "distance_meters": 0,
      "is_coord_diff": false
    },
    {
      "fidedigna": {
        "address": "Viaducto Río de la Piedad y Coyuya Nº149",
        "category": "Pantalla Digital",
        "url": "https://maps.app.goo.gl/vFUbDwHkizYjfuKg7",
        "lat": 19.4055715,
        "lng": -99.1206917
      },
      "db": {
        "id": 6,
        "address": "VIADUCTO - COYUYA N° 149",
        "category": "Muro + Espectacular",
        "lat": 19.4055715,
        "lng": -99.1206917,
        "original_url": "https://maps.app.goo.gl/vFUbDwHkizYjfuKg7"
      },
      "similarity": 1,
      "distance_meters": 0,
      "is_coord_diff": false
    },
    {
      "fidedigna": {
        "address": "Periférico 131",
        "category": "Pantalla Digital",
        "url": "https://maps.app.goo.gl/HTvwFMzz9CF121K27",
        "lat": 19.3273593,
        "lng": -99.2152343
      },
      "db": {
        "id": 25,
        "address": "PERIFERICO MANUEL AVILA CAMACHO N° 131 (ESPECTACULAR)",
        "category": "Muro + Espectacular",
        "lat": 19.3273593,
        "lng": -99.2152343,
        "original_url": "https://maps.app.goo.gl/HTvwFMzz9CF121K27"
      },
      "similarity": 1,
      "distance_meters": 0,
      "is_coord_diff": false
    },
    {
      "fidedigna": {
        "address": "Circuito Azteca",
        "category": "Valla",
        "url": "https://maps.app.goo.gl/ECxt3eTm5eJ3o1XCA",
        "lat": 19.3001771,
        "lng": -99.1627352
      },
      "db": {
        "id": 64,
        "address": "VALLAS CIRCUITO AZTECA - VALLA A",
        "category": "Valla",
        "lat": 19.3001771,
        "lng": -99.1627352,
        "original_url": "https://maps.app.goo.gl/ECxt3eTm5eJ3o1XCA"
      },
      "similarity": 1,
      "distance_meters": 0,
      "is_coord_diff": false
    },
    {
      "fidedigna": {
        "address": "Amsterdam N°116",
        "category": "Valla",
        "url": "https://maps.app.goo.gl/ord2LZPN1CtCbjDa7",
        "lat": 19.412456,
        "lng": -99.1732919
      },
      "db": {
        "id": 62,
        "address": "VALLAS AMSTERDAM N°116 - VALLA A",
        "category": "Valla",
        "lat": 19.412456,
        "lng": -99.1732919,
        "original_url": "https://maps.app.goo.gl/ord2LZPN1CtCbjDa7"
      },
      "similarity": 1,
      "distance_meters": 0,
      "is_coord_diff": false
    },
    {
      "fidedigna": {
        "address": "Viaducto Río de la Piedad y Coyuya N°149",
        "category": "Valla",
        "url": "https://maps.app.goo.gl/diPbR5Gi2AbkYvbT8",
        "lat": 19.4055715,
        "lng": -99.1232666
      },
      "db": {
        "id": 63,
        "address": "VALLAS COYUYA - VALLA A",
        "category": "Valla",
        "lat": 19.4055715,
        "lng": -99.1232666,
        "original_url": "https://maps.app.goo.gl/diPbR5Gi2AbkYvbT8"
      },
      "similarity": 1,
      "distance_meters": 0,
      "is_coord_diff": false
    },
    {
      "fidedigna": {
        "address": "Av. Melchor Ocampo N°379",
        "category": "Valla",
        "url": "https://maps.app.goo.gl/tbv5Xx6baxrcNnye6",
        "lat": 19.342882,
        "lng": -99.1716476
      },
      "db": {
        "id": 65,
        "address": "VALLAS MELCHOR OCAMPO - VALLA A",
        "category": "Valla",
        "lat": 19.342882,
        "lng": -99.1716476,
        "original_url": "https://maps.app.goo.gl/tbv5Xx6baxrcNnye6"
      },
      "similarity": 1,
      "distance_meters": 0,
      "is_coord_diff": false
    },
    {
      "fidedigna": {
        "address": "Periférico Sur Nº5550",
        "category": "Valla",
        "url": "https://maps.app.goo.gl/d8DvBDYFiaG5C1dv6",
        "lat": 19.3018522,
        "lng": -99.164802
      },
      "db": {
        "id": 55,
        "address": "PERIFÉRICO SUR N°5550, EL CARACOL",
        "category": "Pantalla Digital",
        "lat": 19.3018522,
        "lng": -99.164802,
        "original_url": "https://maps.app.goo.gl/d8DvBDYFiaG5C1dv6"
      },
      "similarity": 1,
      "distance_meters": 0,
      "is_coord_diff": false
    }
  ],
  "unmatched_fidedigna": [],
  "unmatched_db": [
    {
      "id": 48,
      "address": "AV. PATRIOTISMO N°483, SAN PEDRO DE LOS PINOS",
      "category": "Muro + Espectacular",
      "size": "12.90 x 7.20 M",
      "width": 12.9,
      "height": 7.2,
      "area_m2": 92.88000000000001,
      "price": 130000,
      "available": true,
      "images": [],
      "lat": 19.3869915,
      "lng": -99.1848619
    },
    {
      "id": 8,
      "address": "INSURGENTES SUR N° 568 - MURO VIADUCTO",
      "reference": "Ubicada entre Luz Savín y Filadelfia, casi frente a la estación del Metrobús La Piedad",
      "category": "Muro",
      "size": "15.10 x 13.60 M",
      "width": 15.1,
      "height": 13.6,
      "area_m2": 205.35999999999999,
      "price": 350000,
      "available": true,
      "images": [
        "https://v5.airtableusercontent.com/v3/u/54/54/1781071200000/qWa729hao0OR5izGGXTFsw/dwDd0fsaB0BvM12lcp0ViwfvybMus972EN7UOrO6Oa_qtocPlRfX7x6TquWAdx8kWl7g3DX224lOcontNfWQXSECUn570jghNk_4AjBGk4IGy6XnW_V6XDfr-FZ5Zn012uNTE26Dw1C8O4TPPZ7CvQvy_Ct2o3H3_gFKeXO7lTY/51udiPKexBdCQudXFWZ4oavLntb_T8wNCZAsEWCOI58"
      ],
      "original_maps_url": "https://maps.app.goo.gl/cmSFTUEMA73hj9CC8",
      "resolved_maps_url": "https://www.google.com/maps/place/Av.+Insurgentes+Sur+568,+Col+del+Valle+Nte,+Benito+Ju%C3%A1rez,+03103+Ciudad+de+M%C3%A9xico,+CDMX/@19.399131,-99.1731159,17z/data=!3m1!4b1!4m6!3m5!1s0x85d1ff6d006e4001:0xa3b3ca39a166cae5!8m2!3d19.399131!4d-99.170541!16s%2Fg%2F11bw508klp?entry=tts&g_ep=EgoyMDI2MDQxMi4wIPu8ASoASAFQAw%3D%3D&skid=2ac3df43-f0ee-4f01-89b6-fd734b781039",
      "lat": 19.399131,
      "lng": -99.1731159
    },
    {
      "id": 67,
      "address": "PERIFERICO N°1795",
      "category": "Muro",
      "size": "—",
      "available": true,
      "images": [],
      "lat": 19.3585,
      "lng": -99.1985
    },
    {
      "id": 60,
      "address": "AEROPUERTO - AICM T2 - PANTALLA",
      "category": "Pantalla Digital",
      "size": "13.00 x 7.00 M",
      "width": 13,
      "height": 7,
      "area_m2": 91,
      "price": 250000,
      "available": false,
      "images": [],
      "lat": 19.4302,
      "lng": -99.0854
    },
    {
      "id": 33,
      "address": "BLVD. ADOLFO LÓPEZ MATEOS 1817 (TORREO NEO)",
      "reference": "Ubicación estratégica sobre Blvd. Adolfo López Mateos",
      "category": "Muro",
      "size": "19.00 x 29.00 M",
      "width": 19,
      "height": 29,
      "area_m2": 551,
      "price": 1500000,
      "available": false,
      "images": [
        "https://v5.airtableusercontent.com/v3/u/54/54/1781071200000/mC0P06YjBqViZnAdOLdD_w/KLNfOs65rmPXPApZmlvZc09ogew5VeQj8thGfIAeE3iP7NozLwIy3gbIuGBzv8VAEI5dJlPx9oedFafVVN15hpJ_j5-NCU65_gdBMTP_6KDGx11k-HrcFZ0Ua-wNUfIdfhCvL6KGnh_SXWm88e49g9Gdyds6WyioZ7Hh-FPwbxY/7O-MZyEV3I_dmMceUsySSvK1ZzQ3_apJZYuL4iql7Es"
      ],
      "original_maps_url": "https://www.google.com/maps?q=place_id:ChIJ44cEtSAA0oURBd42ZpJHnPI",
      "resolved_maps_url": "https://www.google.com/maps?q=place_id:ChIJ44cEtSAA0oURBd42ZpJHnPI",
      "lat": 19.3655268,
      "lng": -99.1911672
    },
    {
      "id": 35,
      "address": "PERIFERICO SUR N°5185",
      "category": "Muro + Espectacular",
      "size": "12.90 x 7.20 M",
      "width": 12.9,
      "height": 7.2,
      "area_m2": 92.88000000000001,
      "available": false,
      "images": [],
      "lat": 19.3029508,
      "lng": -99.1788158
    },
    {
      "id": 4,
      "address": "CARR. MEXICO - CUERNAVACA N° 51",
      "reference": "Entrada de Cuernavaca a México, cerca del monumento Caminero",
      "category": "Muro + Espectacular",
      "size": "12.90 x 7.20 M",
      "width": 12.9,
      "height": 7.2,
      "area_m2": 92.88000000000001,
      "price": 130000,
      "available": true,
      "images": [
        "https://v5.airtableusercontent.com/v3/u/54/54/1781071200000/GqHxhz0ZZu6yyENMuO7atQ/80JMjze4cwwOLYJfnpWSxfUjVbqs_M52uma862Eeb-A6q5FIfx68ybAuLDjWMVEFX6Us8tFvHxGw-WJUgQNnGJNUErIBuC4IA4HdMNlO_cH2K01f9SwT9zq-6Xo0cHL1ZyroLaE9k0PSyxojMZlGUcKcp760QEjeCEHu18bXyYo/ocFxusBKO2eKsZgrVS03dJf_IUsRA_oPArVIwPrvYvk"
      ],
      "original_maps_url": "https://maps.app.goo.gl/4Aog9syfTQbeQJW96",
      "resolved_maps_url": "https://www.google.com/maps/place/M%C3%A9xico-cuernavaca+51,+Tecorral,+Tlalpan,+14409+Ciudad+de+M%C3%A9xico,+CDMX/@19.261694,-99.1687428,17z/data=!3m1!4b1!4m6!3m5!1s0x85ce00c0c635b55b:0x3b535aa0dd826945!8m2!3d19.261694!4d-99.1661679!16s%2Fg%2F11c4n00xr9?entry=tts&g_ep=EgoyMDI2MDQxMi4wIPu8ASoASAFQAw%3D%3D&skid=02fe2fd8-1ef3-418c-8553-a88c84db8b64",
      "lat": 19.261694,
      "lng": -99.1687428
    },
    {
      "id": 66,
      "address": "PERIFERICO N°1795",
      "category": "Muro",
      "size": "—",
      "available": true,
      "images": [],
      "lat": 19.3585,
      "lng": -99.1985
    },
    {
      "id": 26,
      "address": "PERIFERICO MANUEL AVILA CAMACHO N° 131 (PANTALLA DIGITAL)",
      "category": "Pantalla Digital",
      "size": "—",
      "available": true,
      "images": [],
      "lat": 19.3273554,
      "lng": -99.2152369
    },
    {
      "id": 28,
      "address": "PERIFERICO MANUEL AVILA CAMACHO N° 131 (VISTA PERIFERICO)",
      "reference": "Casi esquina con Prado Norte y muy cerca del edificio de Distrito Polanco",
      "category": "Muro",
      "size": "14.50 x 19.50 M",
      "width": 14.5,
      "height": 19.5,
      "area_m2": 282.75,
      "price": 600000,
      "available": false,
      "images": [
        "https://v5.airtableusercontent.com/v3/u/54/54/1781071200000/OJ_fBQg3ywJpe6AyWmaWYQ/NHrwNOr0IX_JWMtTQoszHnc9zcEyiF5y7c5OWcnigh3cqsV-Lie13hbyWFrGB-X_D8LsFy1Lkg0lKoKWmtCCQ6WYsL7vRjSl6YJsxBvRRJg1uMTHtKH1HHLgzfGSzSYUd9nQl1iS-ESMbd_csHCnmnpmOGtku7irqMRJF1T762k/QNf1lyERrgCZgThqplxxOf4Yv8PO1c42YtFOE72OKDc"
      ],
      "original_maps_url": "https://maps.app.goo.gl/LLYoxkTGQbTPH6t88",
      "resolved_maps_url": "https://www.google.com/maps/place/Periferico+Sur+131,+San+Jer%C3%B3nimo+L%C3%ADdice,+La+Magdalena+Contreras,+10200+Ciudad+de+M%C3%A9xico,+CDMX/@19.3273554,-99.2152369,17z/data=!3m1!4b1!4m5!3m4!1s0x85cdff8cc9eeb015:0xfeee31551c29b8ca!8m2!3d19.3273554!4d-99.212662?entry=tts&g_ep=EgoyMDI2MDQxMi4wIPu8ASoASAFQAw%3D%3D&skid=dfcc81cc-e8cb-443a-9cf6-b03bb14a5e42",
      "lat": 19.3273554,
      "lng": -99.2152369
    },
    {
      "id": 54,
      "address": "PERIFÉRICO SUR N°5550, EL CARACOL",
      "reference": "Sobre el lateral del Anillo Periférico Sur, entre Av. del Imán y Av. Insurgentes Sur",
      "category": "Muro + Espectacular",
      "size": "12.90 x 7.20 M",
      "width": 12.9,
      "height": 7.2,
      "area_m2": 92.88000000000001,
      "price": 150000,
      "available": false,
      "images": [
        "https://v5.airtableusercontent.com/v3/u/54/54/1781071200000/dD_6mZFXMpOl1xlr_F886w/RafTrmfkhlEYU7kPIcOqQBmlQHOSE0RBzTVVLItyBAuXbCl3M7kG_a2NtEzRBkPdnU8fPKrn9FzIE0zeAgB_sSDHc2GPZOPOMdsnMoM7GXbdgFJb7P1GC5WOz3oPAXPpOOknf5f_nRnT_EXi5NmTyZ7fMUQzZmR5lzaoK3moj1g/KdfIbzrBrtDqPsYYKRp9UmQdwH6ic4i9cbu53_zzCvE"
      ],
      "original_maps_url": "https://maps.app.goo.gl/i2ge6TMw4x2yBEsC9",
      "resolved_maps_url": "https://www.google.com/maps/place/Periferico+Sur+5550,+Pedregal+de+Carrasco,+Coyoac%C3%A1n,+04700+Ciudad+de+M%C3%A9xico,+CDMX/@19.3074705,-99.1667838,17z/data=!3m1!4b1!4m6!3m5!1s0x85ce0043dac0709f:0xe0b7ffa1fcb79fdd!8m2!3d19.3074705!4d-99.1642089!16s%2Fg%2F11k46qfd_b?entry=tts&g_ep=EgoyMDI2MDQxMi4wIPu8ASoASAFQAw%3D%3D&skid=e14a3a8f-7b53-4736-809d-11653ae590c9",
      "lat": 19.3018522,
      "lng": -99.164802
    },
    {
      "id": 59,
      "address": "AEROPUERTO - AICM T1 (EXTERIOR CALLE P6)",
      "category": "Pantalla Digital",
      "size": "12.00 x 8.00 M",
      "width": 12,
      "height": 8,
      "area_m2": 96,
      "price": 220000,
      "available": false,
      "images": [],
      "lat": 19.4361,
      "lng": -99.0719
    },
    {
      "id": 61,
      "address": "VALLAS AEROPUERTO - VALLA A",
      "reference": "Periférico Sur N5550",
      "category": "Valla",
      "size": "4.70 x 3.30 M",
      "width": 4.7,
      "height": 3.3,
      "area_m2": 15.51,
      "price": 600000,
      "available": true,
      "images": [
        "https://v5.airtableusercontent.com/v3/u/54/54/1781071200000/Zleka8DVTlUqgTyszk2ARQ/qjomDL8-GeJjFJEYnq5QgxyC4Nc7ublqERTmMXE-uquBqgHKf3h1476Zpgn0AetSKd8ZUU0WCLitKshuFAZi6XuNoixf6sZ-siIaFwnjbHrekfWwnQ1oRiVtiKJJqSsSxsLakvsob9fLYcVadkx6wQrFnYMZIRSVNte6qlIq0fs/OPlqhkA098W_WanniPtXf4IUsSA_KvqUw2Ff210ftKs"
      ],
      "original_maps_url": "https://maps.app.goo.gl/i2ge6TMw4x2yBEsC9",
      "resolved_maps_url": "https://www.google.com/maps/place/Periferico+Sur+5550,+Pedregal+de+Carrasco,+Coyoac%C3%A1n,+04700+Ciudad+de+M%C3%A9xico,+CDMX/@19.3074705,-99.1667838,17z/data=!3m1!4b1!4m6!3m5!1s0x85ce0043dac0709f:0xe0b7ffa1fcb79fdd!8m2!3d19.3074705!4d-99.1642089!16s%2Fg%2F11k46qfd_b?entry=tts&g_ep=EgoyMDI2MDQxMi4wIPu8ASoASAFQAw%3D%3D&skid=e14a3a8f-7b53-4736-809d-11653ae590c9",
      "lat": 19.4361,
      "lng": -99.0719
    },
    {
      "id": 58,
      "address": "AEROPUERTO - AICM T1 (EXTERIOR RETORNO P4)",
      "category": "Pantalla Digital",
      "size": "12.00 x 5.00 M",
      "width": 12,
      "height": 5,
      "area_m2": 60,
      "price": 220000,
      "available": false,
      "images": [],
      "lat": 19.4361,
      "lng": -99.0719
    },
    {
      "id": 23,
      "address": "PERIFERICO SUR N°3380, COL. JARDINES DEL PEDREGAL",
      "reference": "Justo frente al Hospital Ángeles del Pedregal y muy cerca del centro comercial Artz Pedregal",
      "category": "Muro + Espectacular",
      "size": "12.90 x 7.20 M",
      "width": 12.9,
      "height": 7.2,
      "area_m2": 92.88000000000001,
      "price": 150000,
      "available": false,
      "images": [
        "https://v5.airtableusercontent.com/v3/u/54/54/1781071200000/VVt_Pq7ZFJVkbT0p9Ge8vg/HLX3Yd9OeKsBxsTDnHPMjun76lgTTNtYRD-dulB4TjN7LyEZUqNsQWeHlykEkMjxu1vcFgadSYld9rS60fT1VhAN6g9SXxMeMK-7mBhJy_jL825n4b4WNovrhSPL_NRfnS5E4L2a4GqiVJvO3iMiznq_8v47PumO_1N4YswiqFc/QcNOheynHKXztPMd0c8EOXgEASsuBbVv1Dz1ZmrCdwQ"
      ],
      "original_maps_url": "https://maps.app.goo.gl/HuvJxhxoFzSCqyv16",
      "resolved_maps_url": "https://www.google.com/maps/place/Periferico+Sur+3380,+Conjunto+Residencial+del+Pedregal,+%C3%81lvaro+Obreg%C3%B3n,+14130+Ciudad+de+M%C3%A9xico,+CDMX/@19.3221788,-99.22036,17z/data=!3m1!4b1!4m6!3m5!1s0x85cdff91f7a3fad3:0x5c232d74d4a018c9!8m2!3d19.3221788!4d-99.2177851!16s%2Fg%2F11bw4ptpcs?entry=tts&g_ep=EgoyMDI2MDQxMi4wIPu8ASoASAFQAw%3D%3D&skid=7acb36b6-e570-45c5-9c4e-2d4e8ed316f2",
      "lat": 19.3221788,
      "lng": -99.22036
    },
    {
      "id": 69,
      "address": "BAJIO",
      "category": "Muro",
      "size": "—",
      "price": 300000,
      "available": true,
      "images": [],
      "lat": 19.405081,
      "lng": -99.156544
    },
    {
      "id": 42,
      "address": "PERIFÉRICO, ESQ. GUITIERREZ DE MENDOZA N° 13",
      "reference": "Dirección a Toreo, a 200m de Walmart Toreo y a 500m de Toreo Parque Central",
      "category": "Muro + Espectacular",
      "size": "12.90 x 7.20 M",
      "width": 12.9,
      "height": 7.2,
      "area_m2": 92.88000000000001,
      "price": 150000,
      "available": true,
      "images": [
        "https://v5.airtableusercontent.com/v3/u/54/54/1781071200000/wavQmAxKg7-C3ZgH1iK-qQ/HE4nf60MBZzgHQw9buwC1qXIC6VWGltMd14ovIYLm6OiRv0WhKfH-J2HyyGJcJzxAB7gLvqTFON9_GGpcmw0T1ODbqrbX7Wqbu7PGzqjsJToCVyB6RvrfYMtAWwOqhlwViApXdUUlMJPyiIAoC03TOWGnCmyMcgo0QSFxkkuEis/iWBuC8Ikdfy2QX6BsCiFXNddE36SkbZFUW67D_sui58"
      ],
      "original_maps_url": "https://maps.app.goo.gl/dY8NycoRWxaRkJc17",
      "resolved_maps_url": "https://www.google.com/maps/place/Periferico+Sur+13,+Belisario+Dom%C3%ADnguez+Secc+16,+Tlalpan,+14080+Ciudad+de+M%C3%A9xico,+CDMX/@19.2942563,-99.1570115,17z/data=!3m1!4b1!4m5!3m4!1s0x85ce00570f77c963:0x71a470c1e5adfa02!8m2!3d19.2942563!4d-99.1544366?entry=tts&g_ep=EgoyMDI2MDQxMi4wIPu8ASoASAFQAw%3D%3D&skid=6e1c7294-1244-4e65-9b45-b0de3865ee91",
      "lat": 19.2942563,
      "lng": -99.1570115
    },
    {
      "id": 37,
      "address": "VIADUCTO MIGUEL ALEMÁN NO. 35 ESQ. HÉROES DE CHURUBUSCO",
      "reference": "A solo unos metros de la Avenida Revolución",
      "category": "Muro + Espectacular",
      "size": "12.90 x 7.20 M",
      "width": 12.9,
      "height": 7.2,
      "area_m2": 92.88000000000001,
      "price": 145000,
      "available": true,
      "images": [
        "https://v5.airtableusercontent.com/v3/u/54/54/1781071200000/iAhcFJU7QIMYAeRn9-Ztcg/RMvOIsqvKJlV4ibnRcFo0_3PCs6uqJ7Nxt3yQnVItAOix7dnp8Pc0XlAV20JK0JVetIZ4KU4r5EBKmXk5IgQ6mH2FLItyaGstSTu_43FtTMzBMNpIGURFo8XnSfD2uAr-bAs9KgGx2malqWq-oZOgIymmZmf843NAr7zyjIpG7M/OCvcVz2paZzcJ6wS2OrSowU35vLMmquzJXFwr7I8B4E"
      ],
      "original_maps_url": "https://maps.app.goo.gl/1djv5WYk56PMWKvf7",
      "resolved_maps_url": "https://www.google.com/maps/place/Viad.+Pdte.+Miguel+Alem%C3%A1n+Vald%C3%A9s+35,+Roma+Sur,+Cuauht%C3%A9moc,+06760+Ciudad+de+M%C3%A9xico,+CDMX/@19.4042091,-99.1601547,17z/data=!3m1!4b1!4m6!3m5!1s0x85d1ff17420a06b3:0xfe8e3254590ba063!8m2!3d19.4042091!4d-99.1575798!16s%2Fg%2F11c2czny6q?entry=tts&g_ep=EgoyMDI2MDQxMi4wIPu8ASoASAFQAw%3D%3D&skid=63c9bbcc-7de4-471d-a36b-16968cfe7f6c",
      "lat": 19.4042091,
      "lng": -99.1601547
    },
    {
      "id": 57,
      "address": "ANILLO PERIFERICO, ESQ. ESTEPA (PANTALLA)",
      "reference": "Muy cerca de la Zona Arqueológica de Cuicuilco y del centro comercial Perisur. Resolución: 2304x960 px",
      "category": "Pantalla Digital",
      "size": "11.52 x 6.72 M",
      "width": 11.52,
      "height": 6.72,
      "area_m2": 77.4144,
      "price": 120000,
      "available": false,
      "images": [
        "https://v5.airtableusercontent.com/v3/u/54/54/1781071200000/Xm2ih_5Dd4Pcl6ktUgwN2g/dBz0_VaOCq8H23wc-tAXQ8gkZ_CSm_2MtRjXWjQSm0qSlsiNW590s6Vx5N23B7l-zEamEVq6rvyOZeKh4fFmCGrTO_Ypsiy2au55gxu-UZkWSyK_tiep9FlQoP-YzaAOw0HmP2MnpmUx7jjcteg0o8K8MHXjShM16vgoTN8N_yk/MNjC_PSrmKRMoNzO_RM1Lo36hIeAzjslCNsUWj18RoQ"
      ],
      "original_maps_url": "https://maps.app.goo.gl/FVnDH2PHxTe256gL7",
      "resolved_maps_url": "https://www.google.com/maps/search/19.302427,+-99.195568?entry=tts&g_ep=EgoyMDI2MDEwNC4wIPu8ASoASAFQAw%3D%3D&skid=d156e33d-9e9b-47a3-9ba8-a1441925dfcf",
      "lat": 19.302427,
      "lng": -99.195568
    }
  ]
}